{
  "route": {
    "id": "1A",
    "name": "Route 1A",
    "color": "#e61e26"
  },
  "directions": [
    {
      "name": "Newport to Cowes",
      "stops": [
        {"name": "Newport Bus Station", "lat": 50.698547380, "lon": -1.294673568},
        {"name": "Towngate", "lat": 50.701869354, "lon": -1.297045187},
        {"name": "Hookes Way", "lat": 50.704907595, "lon": -1.298316781},
        {"name": "Forest Road", "lat": 50.707458398, "lon": -1.300785414},
        {"name": "St Mary's Hospital", "lat": 50.710128954, "lon": -1.302640984},
        {"name": "Lonsdale Avenue", "lat": 50.716419918, "lon": -1.304575787},
        {"name": "Chapel Corner", "lat": 50.721473512, "lon": -1.304515186},
        {"name": "Stag Lane", "lat": 50.724323000, "lon": -1.304987997},
        {"name": "Crockers Farm", "lat": 50.726571902, "lon": -1.305513802},
        {"name": "County Showground", "lat": 50.730352445, "lon": -1.306537463},
        {"name": "Chawton Lane", "lat": 50.734129674, "lon": -1.306520680},
        {"name": "Horseshoe Inn", "lat": 50.738705764, "lon": -1.307887992},
        {"name": "BAE Systems", "lat": 50.746331453, "lon": -1.306344055},
        {"name": "Cowes Park & Ride", "lat": 50.749907855, "lon": -1.304377610},
        {"name": "Cowes Medical Centre", "lat": 50.751417045, "lon": -1.301086695},
        {"name": "Smithards Lane", "lat": 50.753548721, "lon": -1.298171277},
        {"name": "Arctic Road", "lat": 50.757674572, "lon": -1.297868580},
        {"name": "Mill Hill Road", "lat": 50.757769127, "lon": -1.300135532},
        {"name": "Cowes Fire Station", "lat": 50.758938092, "lon": -1.301620933},
        {"name": "Park Gates", "lat": 50.761589696, "lon": -1.301411337},
        {"name": "Cowes, Carvel Lane M&S", "lat": 50.762193128, "lon": -1.298566631}
      ]
    },
    {
      "name": "Cowes to Newport",
      "stops": [
        {"name": "Cowes, Carvel Lane M&S", "lat": 50.762193128, "lon": -1.298566631},
        {"name": "Park Gates", "lat": 50.761589696, "lon": -1.301411337},
        {"name": "Cowes Fire Station", "lat": 50.758938092, "lon": -1.301620933},
        {"name": "Mill Hill Road", "lat": 50.757769127, "lon": -1.300135532},
        {"name": "Arctic Road", "lat": 50.757674572, "lon": -1.297868580},
        {"name": "Smithards Lane", "lat": 50.753548721, "lon": -1.298171277},
        {"name": "Cowes Medical Centre", "lat": 50.751417045, "lon": -1.301086695},
        {"name": "Cowes Park & Ride", "lat": 50.749907855, "lon": -1.304377610},
        {"name": "BAE Systems", "lat": 50.746331453, "lon": -1.306344055},
        {"name": "Horseshoe Inn", "lat": 50.738705764, "lon": -1.307887992},
        {"name": "Chawton Lane", "lat": 50.734129674, "lon": -1.306520680},
        {"name": "County Showground", "lat": 50.730352445, "lon": -1.306537463},
        {"name": "Crockers Farm", "lat": 50.726571902, "lon": -1.305513802},
        {"name": "Stag Lane", "lat": 50.724323000, "lon": -1.304987997},
        {"name": "Chapel Corner", "lat": 50.721473512, "lon": -1.304515186},
        {"name": "Lonsdale Avenue", "lat": 50.716419918, "lon": -1.304575787},
        {"name": "St Mary's Hospital", "lat": 50.710128954, "lon": -1.302640984},
        {"name": "Forest Road", "lat": 50.707458398, "lon": -1.300785414},
        {"name": "Hookes Way", "lat": 50.704907595, "lon": -1.298316781},
        {"name": "Towngate", "lat": 50.701869354, "lon": -1.297045187},
        {"name": "Newport Bus Station", "lat": 50.698547380, "lon": -1.294673568}
      ]
    }
  ]
}