{
  "route": {
    "id": "6",
    "name": "Route 6",
    "color": "#f26725"
  },
  "directions": [
    {
      "name": "Newport to Ventnor",
      "stops": [
        {"name": "Newport Bus Station", "lat": 50.698003666, "lon": -1.294271101},
        {"name": "Drill Hall Road", "lat": 50.698551170, "lon": -1.298567353},
        {"name": "Simeon Monument", "lat": 50.695316589, "lon": -1.303542721},
        {"name": "Lukely Terrace", "lat": 50.693223446, "lon": -1.306929108},
        {"name": "Cedar Hill", "lat": 50.691743113, "lon": -1.309032047},
        {"name": "Carisbrooke, Castle Hill", "lat": 50.691073589, "lon": -1.308348177},
        {"name": "Mountjoy", "lat": 50.687384008, "lon": -1.308530942},
        {"name": "Carisbrooke Priory", "lat": 50.685695327, "lon": -1.308257354},
        {"name": "Little Whitcombe Farm", "lat": 50.682223973, "lon": -1.310789939},
        {"name": "Great Whitcombe Manor", "lat": 50.678863028, "lon": -1.307701035},
        {"name": "Whitecroft, Sandy Lane", "lat": 50.672342319, "lon": -1.302453293},
        {"name": "Rectory Lane", "lat": 50.668551990, "lon": -1.302106011},
        {"name": "Gatcombe Bus Shelter", "lat": 50.665960492, "lon": -1.299972588},
        {"name": "Gatcombe House", "lat": 50.661059294, "lon": -1.299960540},
        {"name": "Highwood Lane", "lat": 50.658251049, "lon": -1.301049172},
        {"name": "Chillerton School", "lat": 50.655846290, "lon": -1.306460549},
        {"name": "Chillerton, Green", "lat": 50.651404018, "lon": -1.313869011},
        {"name": "Chillerton Farm Barns", "lat": 50.648300436, "lon": -1.321607003},
        {"name": "Berry Lane", "lat": 50.642723966, "lon": -1.319390926},
        {"name": "Billingham North", "lat": 50.636912781, "lon": -1.316538750},
        {"name": "Billingham Manor", "lat": 50.634829991, "lon": -1.315936023},
        {"name": "Billingham South", "lat": 50.631235971, "lon": -1.316688052},
        {"name": "Beckfield Cross", "lat": 50.627453309, "lon": -1.319800354},
        {"name": "Star Corner", "lat": 50.619094284, "lon": -1.320556985},
        {"name": "Chale Green Old Stores", "lat": 50.615983964, "lon": -1.315573955},
        {"name": "Oxford Dairy", "lat": 50.611444978, "lon": -1.319649536},
        {"name": "Chale Street Post Box", "lat": 50.608131636, "lon": -1.318976557},
        {"name": "Upper Place Farm", "lat": 50.604084960, "lon": -1.317866025},
        {"name": "The Old Rectory", "lat": 50.600159030, "lon": -1.317842921},
        {"name": "Chale, Church", "lat": 50.596378991, "lon": -1.317547993},
        {"name": "Blythe Shute", "lat": 50.592453972, "lon": -1.314279940},
        {"name": "Blackgang Chine", "lat": 50.588712337, "lon": -1.312264039},
        {"name": "St Catherines Down", "lat": 50.585920998, "lon": -1.306240983},
        {"name": "Niton Football Club", "lat": 50.587236988, "lon": -1.290609018},
        {"name": "Niton, Church Street", "lat": 50.588432311, "lon": -1.285159613},
        {"name": "Niton Baptist Church", "lat": 50.585227991, "lon": -1.286168639},
        {"name": "Undercliff Garage", "lat": 50.582180327, "lon": -1.287796640},
        {"name": "Castlehaven Lane", "lat": 50.580469026, "lon": -1.286588004},
        {"name": "Buddle Inn", "lat": 50.579072139, "lon": -1.291303775},
        {"name": "Sandrock", "lat": 50.580577007, "lon": -1.291211003},
        {"name": "Undercliff Garage", "lat": 50.582100347, "lon": -1.287953216},
        {"name": "Niton Baptist Church", "lat": 50.585286022, "lon": -1.286216919},
        {"name": "Priory Walk", "lat": 50.589164293, "lon": -1.279893438},
        {"name": "Kingates Lane", "lat": 50.597092320, "lon": -1.272043971},
        {"name": "Whitwell Church, Bannock Road South", "lat": 50.597816497, "lon": -1.265632278},
        {"name": "Bannock Road Middle", "lat": 50.599547239, "lon": -1.267710682},
        {"name": "Bannock Road North", "lat": 50.600915303, "lon": -1.266460139},
        {"name": "Whitwell Chapel", "lat": 50.599990186, "lon": -1.265216958},
        {"name": "Whitwell Church, Ventnor Road", "lat": 50.597381565, "lon": -1.263689232},
        {"name": "Dean Farm", "lat": 50.591521261, "lon": -1.258511127},
        {"name": "Week Crossroads", "lat": 50.591771995, "lon": -1.246163942},
        {"name": "Ventnor, Foxhills", "lat": 50.592488002, "lon": -1.229224937},
        {"name": "Pine Point", "lat": 50.593554018, "lon": -1.222535047},
        {"name": "Lower Gills Cliff Road", "lat": 50.594005619, "lon": -1.217599593},
        {"name": "Ventnor Park", "lat": 50.592343035, "lon": -1.217552973},
        {"name": "Eversley Hotel", "lat": 50.593599997, "lon": -1.213239925},
        {"name": "Alpine Road", "lat": 50.594773957, "lon": -1.211511683},
        {"name": "St Catherine's Church", "lat": 50.594564979, "lon": -1.207220182},
        {"name": "Ventnor Boots", "lat": 50.595202784, "lon": -1.205796627}
      ]
    },
    {
      "name": "Ventnor to Newport",
      "stops": [
        {"name": "Ventnor Boots", "lat": 50.595202784, "lon": -1.205796627},
        {"name": "St Catherine's Church", "lat": 50.594564979, "lon": -1.207220182},
        {"name": "Alpine Road", "lat": 50.594773957, "lon": -1.211511683},
        {"name": "Eversley Hotel", "lat": 50.593599997, "lon": -1.213239925},
        {"name": "Ventnor Park", "lat": 50.592343035, "lon": -1.217552973},
        {"name": "Lower Gills Cliff Road", "lat": 50.594005619, "lon": -1.217599593},
        {"name": "Pine Point", "lat": 50.593554018, "lon": -1.222535047},
        {"name": "Ventnor, Foxhills", "lat": 50.592488002, "lon": -1.229224937},
        {"name": "Week Crossroads", "lat": 50.591771995, "lon": -1.246163942},
        {"name": "Dean Farm", "lat": 50.591521261, "lon": -1.258511127},
        {"name": "Whitwell Church, Ventnor Road", "lat": 50.597381565, "lon": -1.263689232},
        {"name": "Whitwell Chapel", "lat": 50.599990186, "lon": -1.265216958},
        {"name": "Bannock Road North", "lat": 50.600915303, "lon": -1.266460139},
        {"name": "Bannock Road Middle", "lat": 50.599547239, "lon": -1.267710682},
        {"name": "Whitwell Church, Bannock Road South", "lat": 50.597816497, "lon": -1.265632278},
        {"name": "Kingates Lane", "lat": 50.597092320, "lon": -1.272043971},
        {"name": "Priory Walk", "lat": 50.589164293, "lon": -1.279893438},
        {"name": "Niton Baptist Church", "lat": 50.585286022, "lon": -1.286216919},
        {"name": "Undercliff Garage", "lat": 50.582100347, "lon": -1.287953216},
        {"name": "Sandrock", "lat": 50.580577007, "lon": -1.291211003},
        {"name": "Buddle Inn", "lat": 50.579072139, "lon": -1.291303775},
        {"name": "Castlehaven Lane", "lat": 50.580469026, "lon": -1.286588004},
        {"name": "Undercliff Garage", "lat": 50.582180327, "lon": -1.287796640},
        {"name": "Niton Baptist Church", "lat": 50.585227991, "lon": -1.286168639},
        {"name": "Niton, Church Street", "lat": 50.588432311, "lon": -1.285159613},
        {"name": "Niton Football Club", "lat": 50.587236988, "lon": -1.290609018},
        {"name": "St Catherines Down", "lat": 50.585920998, "lon": -1.306240983},
        {"name": "Blackgang Chine", "lat": 50.588712337, "lon": -1.312264039},
        {"name": "Blythe Shute", "lat": 50.592453972, "lon": -1.314279940},
        {"name": "Chale, Church", "lat": 50.596378991, "lon": -1.317547993},
        {"name": "The Old Rectory", "lat": 50.600159030, "lon": -1.317842921},
        {"name": "Upper Place Farm", "lat": 50.604084960, "lon": -1.317866025},
        {"name": "Chale Street Post Box", "lat": 50.608131636, "lon": -1.318976557},
        {"name": "Oxford Dairy", "lat": 50.611444978, "lon": -1.319649536},
        {"name": "Chale Green Old Stores", "lat": 50.615983964, "lon": -1.315573955},
        {"name": "Star Corner", "lat": 50.619094284, "lon": -1.320556985},
        {"name": "Beckfield Cross", "lat": 50.627453309, "lon": -1.319800354},
        {"name": "Billingham South", "lat": 50.631235971, "lon": -1.316688052},
        {"name": "Billingham Manor", "lat": 50.634829991, "lon": -1.315936023},
        {"name": "Billingham North", "lat": 50.636912781, "lon": -1.316538750},
        {"name": "Berry Lane", "lat": 50.642723966, "lon": -1.319390926},
        {"name": "Chillerton Farm Barns", "lat": 50.648300436, "lon": -1.321607003},
        {"name": "Chillerton, Green", "lat": 50.651404018, "lon": -1.313869011},
        {"name": "Chillerton School", "lat": 50.655846290, "lon": -1.306460549},
        {"name": "Highwood Lane", "lat": 50.658251049, "lon": -1.301049172},
        {"name": "Gatcombe House", "lat": 50.661059294, "lon": -1.299960540},
        {"name": "Gatcombe Bus Shelter", "lat": 50.665960492, "lon": -1.299972588},
        {"name": "Rectory Lane", "lat": 50.668551990, "lon": -1.302106011},
        {"name": "Whitecroft, Sandy Lane", "lat": 50.672342319, "lon": -1.302453293},
        {"name": "Great Whitcombe Manor", "lat": 50.678863028, "lon": -1.307701035},
        {"name": "Little Whitcombe Farm", "lat": 50.682223973, "lon": -1.310789939},
        {"name": "Carisbrooke Priory", "lat": 50.685695327, "lon": -1.308257354},
        {"name": "Mountjoy", "lat": 50.687384008, "lon": -1.308530942},
        {"name": "Carisbrooke, Castle Hill", "lat": 50.691073589, "lon": -1.308348177},
        {"name": "Cedar Hill", "lat": 50.691743113, "lon": -1.309032047},
        {"name": "Lukely Terrace", "lat": 50.693223446, "lon": -1.306929108},
        {"name": "Simeon Monument", "lat": 50.695316589, "lon": -1.303542721},
        {"name": "Drill Hall Road", "lat": 50.698551170, "lon": -1.298567353},
        {"name": "Newport Bus Station", "lat": 50.698003666, "lon": -1.294271101}
      ]
    }
  ]
}
