{
  "route": {
    "id": "7A",
    "name": "Route 7A",
    "color": "#9a6325"
  },
  "directions": [
    {
      "name": "Newport to Alum Bay",
      "stops": [
        {"name": "Newport Bus Station", "lat": 50.698248078, "lon": -1.294536462},
        {"name": "Drill Hall Road", "lat": 50.698551170, "lon": -1.298567353},
        {"name": "Simeon Monument", "lat": 50.695316589, "lon": -1.303542721},
        {"name": "Lukely Terrace", "lat": 50.693223446, "lon": -1.306929108},
        {"name": "Cedar Hill", "lat": 50.691743113, "lon": -1.309032047},
        {"name": "Carisbrooke High Street", "lat": 50.691456640, "lon": -1.312111216},
        {"name": "The Waverley", "lat": 50.691716714, "lon": -1.315979451},
        {"name": "Nodgham Lane", "lat": 50.691273578, "lon": -1.317873051},
        {"name": "Alvington Shute", "lat": 50.691384160, "lon": -1.324511201},
        {"name": "Alvington Manor Farm", "lat": 50.691990191, "lon": -1.330766458},
        {"name": "Alvington View", "lat": 50.691906845, "lon": -1.334415016},
        {"name": "Blacksmiths Arms", "lat": 50.689037877, "lon": -1.343668105},
        {"name": "Apes Down Farm", "lat": 50.686687352, "lon": -1.355848849},
        {"name": "Swainston Manor", "lat": 50.685698832, "lon": -1.373254843},
        {"name": "Pump Lane", "lat": 50.683000730, "lon": -1.385935588},
        {"name": "Little Shillings", "lat": 50.680763977, "lon": -1.395009186},
        {"name": "Calbourne, Sun Inn", "lat": 50.679576856, "lon": -1.400218836},
        {"name": "Calbourne Cross", "lat": 50.680114797, "lon": -1.406350353},
        {"name": "Clay Lane", "lat": 50.685515907, "lon": -1.416510954},
        {"name": "Newbridge, The Orchards", "lat": 50.687224592, "lon": -1.420090903},
        {"name": "Dodpits Lane", "lat": 50.688209320, "lon": -1.429796324},
        {"name": "Old Ningwood Station", "lat": 50.692532126, "lon": -1.433535476},
        {"name": "Ningwood Manor Farm", "lat": 50.691863719, "lon": -1.438319642},
        {"name": "Throstles", "lat": 50.691264313, "lon": -1.446873472},
        {"name": "Millennium Green", "lat": 50.691686125, "lon": -1.454329400},
        {"name": "Wellow, West Wight Alpacas", "lat": 50.692692771, "lon": -1.458069486},
        {"name": "Thorley Lodge", "lat": 50.694896968, "lon": -1.464488931},
        {"name": "Thorley", "lat": 50.695687942, "lon": -1.467960083},
        {"name": "Broad Lane Thorley", "lat": 50.696647009, "lon": -1.471219913},
        {"name": "Tattels Lane", "lat": 50.697439783, "lon": -1.475515339},
        {"name": "Thorley Cross", "lat": 50.698828245, "lon": -1.482050715},
        {"name": "Old Toll Gate", "lat": 50.705277614, "lon": -1.486367315},
        {"name": "Mountfield", "lat": 50.705438358, "lon": -1.494778424},
        {"name": "Sixpenny Corner", "lat": 50.704623777, "lon": -1.497710743},
        {"name": "Yarmouth Bus Station", "lat": 50.705384667, "lon": -1.501087189},
        {"name": "Norton Grange", "lat": 50.704507521, "lon": -1.510556118},
        {"name": "Westhill Lane", "lat": 50.702089995, "lon": -1.513198959},
        {"name": "Norton Green", "lat": 50.694295645, "lon": -1.515801707},
        {"name": "Regina Road", "lat": 50.686594297, "lon": -1.512794986},
        {"name": "Church Place", "lat": 50.683937938, "lon": -1.513252363},
        {"name": "Hooke Close", "lat": 50.682586562, "lon": -1.515772959},
        {"name": "Stroud Recreation Ground", "lat": 50.682286025, "lon": -1.517291988},
        {"name": "School Green Road", "lat": 50.682368745, "lon": -1.521741864},
        {"name": "Freshwater Sainsbury's", "lat": 50.682580228, "lon": -1.525080180},
        {"name": "Freshwater Fire Station", "lat": 50.683659689, "lon": -1.529598836},
        {"name": "St Andrews Way", "lat": 50.686889649, "lon": -1.527202256},
        {"name": "Heathfield Close", "lat": 50.689662037, "lon": -1.526183725},
        {"name": "Brambles Corner", "lat": 50.690021151, "lon": -1.530483760},
        {"name": "Colwell Baptist Church", "lat": 50.687638093, "lon": -1.532730028},
        {"name": "Coastguard Cottages Totland", "lat": 50.683263395, "lon": -1.538449489},
        {"name": "Totland, War Memorial", "lat": 50.680374873, "lon": -1.540261189},
        {"name": "Heatherwood Park Road", "lat": 50.677073705, "lon": -1.544638344},
        {"name": "Christ Church", "lat": 50.675961787, "lon": -1.545455789},
        {"name": "Headon Rise", "lat": 50.673196140, "lon": -1.548836430},
        {"name": "The Golf House", "lat": 50.669620747, "lon": -1.554488466},
        {"name": "Needles Landmark Attraction", "lat": 50.667998459, "lon": -1.565455994}
      ]
    },
    {
      "name": "Alum Bay to Newport",
      "stops": [
        {"name": "Needles Landmark Attraction", "lat": 50.667998459, "lon": -1.565455994},
        {"name": "The Golf House", "lat": 50.669620747, "lon": -1.554488466},
        {"name": "Headon Rise", "lat": 50.673196140, "lon": -1.548836430},
        {"name": "Christ Church", "lat": 50.675961787, "lon": -1.545455789},
        {"name": "Heatherwood Park Road", "lat": 50.677073705, "lon": -1.544638344},
        {"name": "Totland, War Memorial", "lat": 50.680374873, "lon": -1.540261189},
        {"name": "Coastguard Cottages Totland", "lat": 50.683263395, "lon": -1.538449489},
        {"name": "Colwell Baptist Church", "lat": 50.687638093, "lon": -1.532730028},
        {"name": "Brambles Corner", "lat": 50.690021151, "lon": -1.530483760},
        {"name": "Heathfield Close", "lat": 50.689662037, "lon": -1.526183725},
        {"name": "St Andrews Way", "lat": 50.686889649, "lon": -1.527202256},
        {"name": "Freshwater Fire Station", "lat": 50.683659689, "lon": -1.529598836},
        {"name": "Freshwater Sainsbury's", "lat": 50.682580228, "lon": -1.525080180},
        {"name": "School Green Road", "lat": 50.682368745, "lon": -1.521741864},
        {"name": "Stroud Recreation Ground", "lat": 50.682286025, "lon": -1.517291988},
        {"name": "Hooke Close", "lat": 50.682586562, "lon": -1.515772959},
        {"name": "Church Place", "lat": 50.683937938, "lon": -1.513252363},
        {"name": "Regina Road", "lat": 50.686594297, "lon": -1.512794986},
        {"name": "Norton Green", "lat": 50.694295645, "lon": -1.515801707},
        {"name": "Westhill Lane", "lat": 50.702089995, "lon": -1.513198959},
        {"name": "Norton Grange", "lat": 50.704507521, "lon": -1.510556118},
        {"name": "Yarmouth Bus Station", "lat": 50.705384667, "lon": -1.501087189},
        {"name": "Sixpenny Corner", "lat": 50.704623777, "lon": -1.497710743},
        {"name": "Mountfield", "lat": 50.705438358, "lon": -1.494778424},
        {"name": "Old Toll Gate", "lat": 50.705277614, "lon": -1.486367315},
        {"name": "Thorley Cross", "lat": 50.698828245, "lon": -1.482050715},
        {"name": "Tattels Lane", "lat": 50.697439783, "lon": -1.475515339},
        {"name": "Broad Lane Thorley", "lat": 50.696647009, "lon": -1.471219913},
        {"name": "Thorley", "lat": 50.695687942, "lon": -1.467960083},
        {"name": "Thorley Lodge", "lat": 50.694896968, "lon": -1.464488931},
        {"name": "Wellow, West Wight Alpacas", "lat": 50.692692771, "lon": -1.458069486},
        {"name": "Millennium Green", "lat": 50.691686125, "lon": -1.454329400},
        {"name": "Throstles", "lat": 50.691264313, "lon": -1.446873472},
        {"name": "Ningwood Manor Farm", "lat": 50.691863719, "lon": -1.438319642},
        {"name": "Old Ningwood Station", "lat": 50.692532126, "lon": -1.433535476},
        {"name": "Dodpits Lane", "lat": 50.688209320, "lon": -1.429796324},
        {"name": "Newbridge, The Orchards", "lat": 50.687224592, "lon": -1.420090903},
        {"name": "Clay Lane", "lat": 50.685515907, "lon": -1.416510954},
        {"name": "Calbourne Cross", "lat": 50.680114797, "lon": -1.406350353},
        {"name": "Calbourne, Sun Inn", "lat": 50.679576856, "lon": -1.400218836},
        {"name": "Little Shillings", "lat": 50.680763977, "lon": -1.395009186},
        {"name": "Pump Lane", "lat": 50.683000730, "lon": -1.385935588},
        {"name": "Swainston Manor", "lat": 50.685698832, "lon": -1.373254843},
        {"name": "Apes Down Farm", "lat": 50.686687352, "lon": -1.355848849},
        {"name": "Blacksmiths Arms", "lat": 50.689037877, "lon": -1.343668105},
        {"name": "Alvington View", "lat": 50.691906845, "lon": -1.334415016},
        {"name": "Alvington Manor Farm", "lat": 50.691990191, "lon": -1.330766458},
        {"name": "Alvington Shute", "lat": 50.691384160, "lon": -1.324511201},
        {"name": "Nodgham Lane", "lat": 50.691273578, "lon": -1.317873051},
        {"name": "The Waverley", "lat": 50.691716714, "lon": -1.315979451},
        {"name": "Carisbrooke High Street", "lat": 50.691456640, "lon": -1.312111216},
        {"name": "Cedar Hill", "lat": 50.691743113, "lon": -1.309032047},
        {"name": "Lukely Terrace", "lat": 50.693223446, "lon": -1.306929108},
        {"name": "Simeon Monument", "lat": 50.695316589, "lon": -1.303542721},
        {"name": "Drill Hall Road", "lat": 50.698551170, "lon": -1.298567353},
        {"name": "Newport Bus Station", "lat": 50.698248078, "lon": -1.294536462}
      ]
    }
  ]
}