{
  "route": {
    "id": "8",
    "name": "Route 8",
    "color": "#1e50a1"
  },
  "directions": [
    {
      "name": "Newport to Ryde",
      "stops": [
        {"name": "Newport Bus Station", "lat": 50.698003666, "lon": -1.294271101},
        {"name": "Home Meade", "lat": 50.697579986, "lon": -1.286889926},
        {"name": "Pan, Barton Primary School", "lat": 50.698390020, "lon": -1.283171994},
        {"name": "Manor Crescent", "lat": 50.699319010, "lon": -1.281189926},
        {"name": "Greenways", "lat": 50.700168030, "lon": -1.280213936},
        {"name": "Staplers, Long Lane", "lat": 50.701190035, "lon": -1.277054016},
        {"name": "Buckbury Lane", "lat": 50.700351038, "lon": -1.273803036},
        {"name": "Landscape Lane", "lat": 50.699969264, "lon": -1.270268962},
        {"name": "Durton Lane", "lat": 50.694400987, "lon": -1.261314050},
        {"name": "Standen Lane", "lat": 50.692054958, "lon": -1.254535322},
        {"name": "Downend Cottage", "lat": 50.689615037, "lon": -1.248486568},
        {"name": "Hare & Hounds", "lat": 50.686716998, "lon": -1.246926013},
        {"name": "Arreton Manor", "lat": 50.678579753, "lon": -1.249724266},
        {"name": "Arreton Barns", "lat": 50.677151034, "lon": -1.246639035},
        {"name": "Arreton School", "lat": 50.676542033, "lon": -1.243984934},
        {"name": "Carpenters Yard", "lat": 50.674224959, "lon": -1.239055023},
        {"name": "Hazely Combe", "lat": 50.670188020, "lon": -1.233190033},
        {"name": "Old Horringford Station", "lat": 50.666186954, "lon": -1.232024015},
        {"name": "Hale Manor", "lat": 50.660359027, "lon": -1.229261004},
        {"name": "Hale Common", "lat": 50.658576542, "lon": -1.227237233},
        {"name": "Fighting Cocks", "lat": 50.655503952, "lon": -1.223302981},
        {"name": "Amazon World", "lat": 50.654378198, "lon": -1.219341793},
        {"name": "Winford Cross", "lat": 50.654777000, "lon": -1.212158053},
        {"name": "Forest Road West", "lat": 50.654144028, "lon": -1.207322033},
        {"name": "Forest Road East", "lat": 50.654401023, "lon": -1.202532047},
        {"name": "Winford, Hairpin Bend", "lat": 50.654580396, "lon": -1.200085386},
        {"name": "Winford, Parkway", "lat": 50.652120015, "lon": -1.200058976},
        {"name": "Smokey Hole", "lat": 50.650059016, "lon": -1.201633921},
        {"name": "Apse Heath Crossroads", "lat": 50.646876027, "lon": -1.202063934},
        {"name": "Cheverton Shute", "lat": 50.646542954, "lon": -1.196607926},
        {"name": "Sandown Airport", "lat": 50.646801996, "lon": -1.185070970},
        {"name": "Lake, Morrisons", "lat": 50.646104254, "lon": -1.181262531},
        {"name": "Broadlea Primary School", "lat": 50.646579985, "lon": -1.177468941},
        {"name": "Lamorbey Road", "lat": 50.647288735, "lon": -1.173250541},
        {"name": "Louis Road", "lat": 50.647547387, "lon": -1.170417169},
        {"name": "Lake Fairway", "lat": 50.650166951, "lon": -1.166521923},
        {"name": "The Heights", "lat": 50.651411435, "lon": -1.161211250},
        {"name": "Royal Crescent", "lat": 50.654185345, "lon": -1.159280422},
        {"name": "Fitzroy Street", "lat": 50.654042810, "lon": -1.156977147},
        {"name": "Sandown Conservative Club", "lat": 50.655930425, "lon": -1.154368668},
        {"name": "Sandown, Victoria Road", "lat": 50.656190293, "lon": -1.150530226},
        {"name": "Avenue Slipway", "lat": 50.656307033, "lon": -1.149200017},
        {"name": "Fort Street", "lat": 50.657806961, "lon": -1.145179011},
        {"name": "Wildheart Sanctuary", "lat": 50.659714528, "lon": -1.140577326},
        {"name": "Meadow Way", "lat": 50.662428020, "lon": -1.135644966},
        {"name": "Sandown Bay Holiday Centre", "lat": 50.665164990, "lon": -1.132891047},
        {"name": "Yaverland Church", "lat": 50.670500039, "lon": -1.132996999},
        {"name": "Culver Down", "lat": 50.674918407, "lon": -1.124434928},
        {"name": "Longlands Cottages", "lat": 50.675206954, "lon": -1.116929999},
        {"name": "Bembridge Airport", "lat": 50.675760973, "lon": -1.106185920},
        {"name": "Peacock Hill", "lat": 50.674468031, "lon": -1.102542048},
        {"name": "Whitecliff Bay", "lat": 50.676050019, "lon": -1.098629920},
        {"name": "Kingswood Centre", "lat": 50.677766956, "lon": -1.093063947},
        {"name": "Pear Tree Corner", "lat": 50.679699950, "lon": -1.088399934},
        {"name": "Steyne Cross", "lat": 50.682048977, "lon": -1.089571023},
        {"name": "Steyne Park", "lat": 50.684372980, "lon": -1.087103949},
        {"name": "Lane End Road", "lat": 50.685857990, "lon": -1.084122959},
        {"name": "Bembridge Fire Station", "lat": 50.685286032, "lon": -1.081527057},
        {"name": "Bembridge, Crossway", "lat": 50.685745951, "lon": -1.079123923},
        {"name": "Lane End Shops", "lat": 50.686391016, "lon": -1.081346943},
        {"name": "Inver House", "lat": 50.688368036, "lon": -1.086326968},
        {"name": "Bembridge Church", "lat": 50.690144978, "lon": -1.089941013},
        {"name": "Bembridge Point", "lat": 50.693583969, "lon": -1.092421950},
        {"name": "Bembridge Houseboats", "lat": 50.690812396, "lon": -1.100086062},
        {"name": "Brading Haven Yacht Club", "lat": 50.692731955, "lon": -1.105276972},
        {"name": "Old St Helens Station", "lat": 50.693628669, "lon": -1.112009921},
        {"name": "St Helens, Downsview Road", "lat": 50.695878033, "lon": -1.113517984},
        {"name": "The Vine", "lat": 50.697855989, "lon": -1.112083039},
        {"name": "Guildford Road", "lat": 50.699101952, "lon": -1.107687988},
        {"name": "Nodes Point", "lat": 50.702625993, "lon": -1.108039010},
        {"name": "Attrill's Corner", "lat": 50.703608992, "lon": -1.115059979},
        {"name": "St Helens Church", "lat": 50.706295990, "lon": -1.115298032},
        {"name": "West Priory Cottages", "lat": 50.708272993, "lon": -1.116354035},
        {"name": "Priory Drive", "lat": 50.710638327, "lon": -1.117283158},
        {"name": "The Bench", "lat": 50.710446977, "lon": -1.114734979},
        {"name": "Greenham Drive", "lat": 50.711401123, "lon": -1.113515530},
        {"name": "Seaview, Caws Avenue", "lat": 50.713249070, "lon": -1.111765993},
        {"name": "The Hobbit", "lat": 50.714995039, "lon": -1.112710920},
        {"name": "Solent View Close", "lat": 50.715823021, "lon": -1.113231994},
        {"name": "Somerset Road", "lat": 50.718419298, "lon": -1.111640810},
        {"name": "St Peter's Church", "lat": 50.719537168, "lon": -1.112002161},
        {"name": "Sophie Watson Gardens", "lat": 50.717744990, "lon": -1.113185961},
        {"name": "Nettlestone Green", "lat": 50.713563974, "lon": -1.116960949},
        {"name": "Nettlestone Manor", "lat": 50.714325022, "lon": -1.118824981},
        {"name": "Isle of Wight Distillery", "lat": 50.716379983, "lon": -1.124616031},
        {"name": "Bullen Cross", "lat": 50.717961003, "lon": -1.128828980},
        {"name": "Woodlands Close", "lat": 50.721260960, "lon": -1.135867011},
        {"name": "Thornton Cross", "lat": 50.723180783, "lon": -1.138581375},
        {"name": "Derwent Drive", "lat": 50.723355038, "lon": -1.142446057},
        {"name": "Ryde, St. John's Church", "lat": 50.723472990, "lon": -1.147482979},
        {"name": "Lower Highland Road", "lat": 50.722429234, "lon": -1.151373536},
        {"name": "St Johns Road Station", "lat": 50.724853026, "lon": -1.157444012},
        {"name": "Benett Street", "lat": 50.726340639, "lon": -1.157508438},
        {"name": "Ryde Library", "lat": 50.727900459, "lon": -1.161815990},
        {"name": "Union Street", "lat": 50.730297030, "lon": -1.162614030},
        {"name": "Ryde Transport Interchange", "lat": 50.732771227, "lon": -1.160099561}
      ]
    },
    {
      "name": "Ryde to Newport",
      "stops": [
        {"name": "Ryde Transport Interchange", "lat": 50.732771227, "lon": -1.160099561},
        {"name": "Union Street", "lat": 50.730297030, "lon": -1.162614030},
        {"name": "Ryde Library", "lat": 50.727900459, "lon": -1.161815990},
        {"name": "Benett Street", "lat": 50.726340639, "lon": -1.157508438},
        {"name": "St Johns Road Station", "lat": 50.724853026, "lon": -1.157444012},
        {"name": "Lower Highland Road", "lat": 50.722429234, "lon": -1.151373536},
        {"name": "Ryde, St. John's Church", "lat": 50.723472990, "lon": -1.147482979},
        {"name": "Derwent Drive", "lat": 50.723355038, "lon": -1.142446057},
        {"name": "Thornton Cross", "lat": 50.723180783, "lon": -1.138581375},
        {"name": "Woodlands Close", "lat": 50.721260960, "lon": -1.135867011},
        {"name": "Bullen Cross", "lat": 50.717961003, "lon": -1.128828980},
        {"name": "Isle of Wight Distillery", "lat": 50.716379983, "lon": -1.124616031},
        {"name": "Nettlestone Manor", "lat": 50.714325022, "lon": -1.118824981},
        {"name": "Nettlestone Green", "lat": 50.713563974, "lon": -1.116960949},
        {"name": "Sophie Watson Gardens", "lat": 50.717744990, "lon": -1.113185961},
        {"name": "St Peter's Church", "lat": 50.719537168, "lon": -1.112002161},
        {"name": "Somerset Road", "lat": 50.718419298, "lon": -1.111640810},
        {"name": "Solent View Close", "lat": 50.715823021, "lon": -1.113231994},
        {"name": "The Hobbit", "lat": 50.714995039, "lon": -1.112710920},
        {"name": "Seaview, Caws Avenue", "lat": 50.713249070, "lon": -1.111765993},
        {"name": "Greenham Drive", "lat": 50.711401123, "lon": -1.113515530},
        {"name": "The Bench", "lat": 50.710446977, "lon": -1.114734979},
        {"name": "Priory Drive", "lat": 50.710638327, "lon": -1.117283158},
        {"name": "West Priory Cottages", "lat": 50.708272993, "lon": -1.116354035},
        {"name": "St Helens Church", "lat": 50.706295990, "lon": -1.115298032},
        {"name": "Attrill's Corner", "lat": 50.703608992, "lon": -1.115059979},
        {"name": "Nodes Point", "lat": 50.702625993, "lon": -1.108039010},
        {"name": "Guildford Road", "lat": 50.699101952, "lon": -1.107687988},
        {"name": "The Vine", "lat": 50.697855989, "lon": -1.112083039},
        {"name": "St Helens, Downsview Road", "lat": 50.695878033, "lon": -1.113517984},
        {"name": "Old St Helens Station", "lat": 50.693628669, "lon": -1.112009921},
        {"name": "Brading Haven Yacht Club", "lat": 50.692731955, "lon": -1.105276972},
        {"name": "Bembridge Houseboats", "lat": 50.690812396, "lon": -1.100086062},
        {"name": "Bembridge Point", "lat": 50.693583969, "lon": -1.092421950},
        {"name": "Bembridge Church", "lat": 50.690144978, "lon": -1.089941013},
        {"name": "Inver House", "lat": 50.688368036, "lon": -1.086326968},
        {"name": "Lane End Shops", "lat": 50.686391016, "lon": -1.081346943},
        {"name": "Bembridge, Crossway", "lat": 50.685745951, "lon": -1.079123923},
        {"name": "Bembridge Fire Station", "lat": 50.685286032, "lon": -1.081527057},
        {"name": "Lane End Road", "lat": 50.685857990, "lon": -1.084122959},
        {"name": "Steyne Park", "lat": 50.684372980, "lon": -1.087103949},
        {"name": "Steyne Cross", "lat": 50.682048977, "lon": -1.089571023},
        {"name": "Pear Tree Corner", "lat": 50.679699950, "lon": -1.088399934},
        {"name": "Kingswood Centre", "lat": 50.677766956, "lon": -1.093063947},
        {"name": "Whitecliff Bay", "lat": 50.676050019, "lon": -1.098629920},
        {"name": "Peacock Hill", "lat": 50.674468031, "lon": -1.102542048},
        {"name": "Bembridge Airport", "lat": 50.675760973, "lon": -1.106185920},
        {"name": "Longlands Cottages", "lat": 50.675206954, "lon": -1.116929999},
        {"name": "Culver Down", "lat": 50.674918407, "lon": -1.124434928},
        {"name": "Yaverland Church", "lat": 50.670500039, "lon": -1.132996999},
        {"name": "Sandown Bay Holiday Centre", "lat": 50.665164990, "lon": -1.132891047},
        {"name": "Meadow Way", "lat": 50.662428020, "lon": -1.135644966},
        {"name": "Wildheart Sanctuary", "lat": 50.659714528, "lon": -1.140577326},
        {"name": "Fort Street", "lat": 50.657806961, "lon": -1.145179011},
        {"name": "Avenue Slipway", "lat": 50.656307033, "lon": -1.149200017},
        {"name": "Sandown, Victoria Road", "lat": 50.656190293, "lon": -1.150530226},
        {"name": "Sandown Conservative Club", "lat": 50.655930425, "lon": -1.154368668},
        {"name": "Fitzroy Street", "lat": 50.654042810, "lon": -1.156977147},
        {"name": "Royal Crescent", "lat": 50.654185345, "lon": -1.159280422},
        {"name": "The Heights", "lat": 50.651411435, "lon": -1.161211250},
        {"name": "Lake Fairway", "lat": 50.650166951, "lon": -1.166521923},
        {"name": "Louis Road", "lat": 50.647547387, "lon": -1.170417169},
        {"name": "Lamorbey Road", "lat": 50.647288735, "lon": -1.173250541},
        {"name": "Broadlea Primary School", "lat": 50.646579985, "lon": -1.177468941},
        {"name": "Lake, Morrisons", "lat": 50.646104254, "lon": -1.181262531},
        {"name": "Sandown Airport", "lat": 50.646801996, "lon": -1.185070970},
        {"name": "Cheverton Shute", "lat": 50.646542954, "lon": -1.196607926},
        {"name": "Apse Heath Crossroads", "lat": 50.646876027, "lon": -1.202063934},
        {"name": "Smokey Hole", "lat": 50.650059016, "lon": -1.201633921},
        {"name": "Winford, Parkway", "lat": 50.652120015, "lon": -1.200058976},
        {"name": "Winford, Hairpin Bend", "lat": 50.654580396, "lon": -1.200085386},
        {"name": "Forest Road East", "lat": 50.654401023, "lon": -1.202532047},
        {"name": "Forest Road West", "lat": 50.654144028, "lon": -1.207322033},
        {"name": "Winford Cross", "lat": 50.654777000, "lon": -1.212158053},
        {"name": "Amazon World", "lat": 50.654378198, "lon": -1.219341793},
        {"name": "Fighting Cocks", "lat": 50.655503952, "lon": -1.223302981},
        {"name": "Hale Common", "lat": 50.658576542, "lon": -1.227237233},
        {"name": "Hale Manor", "lat": 50.660359027, "lon": -1.229261004},
        {"name": "Old Horringford Station", "lat": 50.666186954, "lon": -1.232024015},
        {"name": "Carpenters Yard", "lat": 50.674224959, "lon": -1.239055023},
        {"name": "Arreton School", "lat": 50.676542033, "lon": -1.243984934},
        {"name": "Arreton Barns", "lat": 50.677151034, "lon": -1.246639035},
        {"name": "Arreton Manor", "lat": 50.678579753, "lon": -1.249724266},
        {"name": "Hare & Hounds", "lat": 50.686716998, "lon": -1.246926013},
        {"name": "Downend Cottage", "lat": 50.689615037, "lon": -1.248486568},
        {"name": "Standen Lane", "lat": 50.692054958, "lon": -1.254535322},
        {"name": "Durton Lane", "lat": 50.694400987, "lon": -1.261314050},
        {"name": "Landscape Lane", "lat": 50.699969264, "lon": -1.270268962},
        {"name": "Buckbury Lane", "lat": 50.700351038, "lon": -1.273803036},
        {"name": "Staplers, Long Lane", "lat": 50.701190035, "lon": -1.277054016},
        {"name": "Greenways", "lat": 50.700168030, "lon": -1.280213936},
        {"name": "Manor Crescent", "lat": 50.699319010, "lon": -1.281189926},
        {"name": "Pan, Barton Primary School", "lat": 50.698390020, "lon": -1.283171994},
        {"name": "Home Meade", "lat": 50.697579986, "lon": -1.286889926},
        {"name": "Newport Bus Station", "lat": 50.698003666, "lon": -1.294271101}
      ]
    }
  ]
}