{
  "route": {
    "id": "TDB",
    "name": "Route TDB",
    "color": "#14b2e7",
    "type": "circular"
  },
  "directions": [
    {
      "stops": [
        {"name": "Ryde Transport Interchange", "lat": 50.732402678, "lon": -1.158873385},
        {"name": "Cross Street", "lat": 50.729918467, "lon": -1.162318411},
        {"name": "John Street", "lat": 50.727869270, "lon": -1.164990257},
        {"name": "Parish Church", "lat": 50.727525908, "lon": -1.167277447},
        {"name": "St Vincents", "lat": 50.728206988, "lon": -1.174533790},
        {"name": "Binstead, Ringwood Road", "lat": 50.727829718, "lon": -1.180972840},
        {"name": "Binstead, Binstead Arms", "lat": 50.727284902, "lon": -1.185360298},
        {"name": "Binstead, Newnham Road", "lat": 50.727046679, "lon": -1.191187511},
        {"name": "Quarr Abbey", "lat": 50.727639578, "lon": -1.204169599},
        {"name": "Fishbourne Lane", "lat": 50.726368039, "lon": -1.214511007},
        {"name": "Kite Hill", "lat": 50.725525992, "lon": -1.222004020},
        {"name": "Wootton Bridge", "lat": 50.724743326, "lon": -1.226815606},
        {"name": "Wootton Tesco", "lat": 50.725071792, "lon": -1.231612972},
        {"name": "Wootton, Cedars", "lat": 50.724571604, "lon": -1.236239693},
        {"name": "Gravel Pit Road", "lat": 50.721855633, "lon": -1.240349610},
        {"name": "Wootton Station", "lat": 50.719142427, "lon": -1.242135836},
        {"name": "Briddlesford Lodge Farm", "lat": 50.709529376, "lon": -1.244953386},
        {"name": "Knights Cross", "lat": 50.704671816, "lon": -1.243346181},
        {"name": "Headhunters", "lat": 50.696235780, "lon": -1.240466059},
        {"name": "Hare & Hounds", "lat": 50.686716998, "lon": -1.246926013},
        {"name": "Duxmore Farm", "lat": 50.682357639, "lon": -1.219712929},
        {"name": "Mersley Down Summit", "lat": 50.682695190, "lon": -1.212403505},
        {"name": "Yarbridge Crossroads", "lat": 50.673048689, "lon": -1.145145569},
        {"name": "Devonia", "lat": 50.669639517, "lon": -1.148716871},
        {"name": "College Close", "lat": 50.661251708, "lon": -1.151542511},
        {"name": "Fort Mews", "lat": 50.659246673, "lon": -1.150361926},
        {"name": "Sandown, High Street", "lat": 50.655273005, "lon": -1.151541973},
        {"name": "Sandown, Victoria Road", "lat": 50.656190293, "lon": -1.150530226},
        {"name": "Avenue Slipway", "lat": 50.656307033, "lon": -1.149200017},
        {"name": "Fort Street", "lat": 50.657806961, "lon": -1.145179011},
        {"name": "Wildheart Sanctuary", "lat": 50.659714528, "lon": -1.140577326},
        {"name": "Wildheart Sanctuary, Grounds", "lat": 50.660928540, "lon": -1.138135830},
        {"name": "Meadow Way", "lat": 50.662428020, "lon": -1.135644966},
        {"name": "Sandown Bay Holiday Centre", "lat": 50.665164990, "lon": -1.132891047},
        {"name": "Yaverland Church", "lat": 50.670500039, "lon": -1.132996999},
        {"name": "Culver Down", "lat": 50.674918407, "lon": -1.124434928},
        {"name": "Longlands Cottages", "lat": 50.675206954, "lon": -1.116929999},
        {"name": "Bembridge Airport", "lat": 50.675760973, "lon": -1.106185920},
        {"name": "Peacock Hill", "lat": 50.674468031, "lon": -1.102542048},
        {"name": "Whitecliff Bay", "lat": 50.676050019, "lon": -1.098629920},
        {"name": "Kingswood Centre", "lat": 50.677766956, "lon": -1.093063947},
        {"name": "Pear Tree Corner", "lat": 50.679699950, "lon": -1.088399934},
        {"name": "Steyne Cross", "lat": 50.682048977, "lon": -1.089571023},
        {"name": "Steyne Park", "lat": 50.684372980, "lon": -1.087103949},
        {"name": "Lane End Road", "lat": 50.685857990, "lon": -1.084122959},
        {"name": "Inver House", "lat": 50.688368036, "lon": -1.086326968},
        {"name": "Bembridge Church", "lat": 50.690144978, "lon": -1.089941013},
        {"name": "Bembridge Point", "lat": 50.693583969, "lon": -1.092421950},
        {"name": "Bembridge Houseboats", "lat": 50.690812396, "lon": -1.100086062},
        {"name": "Brading Haven Yacht Club", "lat": 50.692731955, "lon": -1.105276972},
        {"name": "Old St Helens Station", "lat": 50.693628669, "lon": -1.112009921},
        {"name": "St Helens, Downsview Road", "lat": 50.695878033, "lon": -1.113517984},
        {"name": "The Vine", "lat": 50.697855989, "lon": -1.112083039},
        {"name": "Guildford Road", "lat": 50.699101952, "lon": -1.107687988},
        {"name": "Nodes Point", "lat": 50.702625993, "lon": -1.108039010},
        {"name": "Attrill's Corner", "lat": 50.703608992, "lon": -1.115059979},
        {"name": "St Helens Church", "lat": 50.706295990, "lon": -1.115298032},
        {"name": "West Priory Cottages", "lat": 50.708272993, "lon": -1.116354035},
        {"name": "Elm Close", "lat": 50.712187457, "lon": -1.117594000},
        {"name": "Nettlestone Manor", "lat": 50.714325022, "lon": -1.118824981},
        {"name": "Isle of Wight Distillery", "lat": 50.716379983, "lon": -1.124616031},
        {"name": "Bullen Cross", "lat": 50.717961003, "lon": -1.128828980},
        {"name": "Woodlands Close", "lat": 50.721260960, "lon": -1.135867011},
        {"name": "Thornton Cross", "lat": 50.723180783, "lon": -1.138581375},
        {"name": "Derwent Drive", "lat": 50.723355038, "lon": -1.142446057},
        {"name": "Ryde, St. John's Church", "lat": 50.723472990, "lon": -1.147482979},
        {"name": "East Hill Road", "lat": 50.728724456, "lon": -1.150168859},
        {"name": "Ashley Gardens", "lat": 50.731050225, "lon": -1.153414072},
        {"name": "Ryde Transport Interchange (Terminus)", "lat": 50.732402678, "lon": -1.158873385}
      ]
    }
  ]
}
