{
  "route": {
    "id": "5",
    "name": "Route 5",
    "length": 20,
    "color": "#bbb8dc"
  },
  "directions": [
    {
      "name": "Newport to East Cowes",
      "stops": [
        {"name": "Newport Bus Station", "lat": 50.698092472, "lon": -1.294085698},
        {"name": "Hillside", "lat": 50.702759961, "lon": -1.288348961},
        {"name": "Seaclose", "lat": 50.705437802, "lon": -1.286399044},
        {"name": "Medina, Leisure Centre", "lat": 50.708823877, "lon": -1.282778703},
        {"name": "Orchard House", "lat": 50.712524972, "lon": -1.279671964},
        {"name": "Whitehouses", "lat": 50.719684805, "lon": -1.272229460},
        {"name": "Binfield Corner", "lat": 50.722032796, "lon": -1.268056480},
        {"name": "Alverstone Road", "lat": 50.727558674, "lon": -1.263025713},
        {"name": "Whippingham Forge", "lat": 50.738215928, "lon": -1.268867199},
        {"name": "Whippingham, Campfield Road", "lat": 50.739288273, "lon": -1.269218972},
        {"name": "CECAMM", "lat": 50.743305183, "lon": -1.271636735},
        {"name": "Osborne House", "lat": 50.749520460, "lon": -1.276175491},
        {"name": "Gordon Lodge", "lat": 50.750851466, "lon": -1.280549288},
        {"name": "Mayfield Road", "lat": 50.751025367, "lon": -1.282502810},
        {"name": "Vectis Road", "lat": 50.751109837, "lon": -1.284542761},
        {"name": "The Chapel", "lat": 50.753010020, "lon": -1.286747920},
        {"name": "Nursery Gardens", "lat": 50.755375082, "lon": -1.286448303},
        {"name": "East Cowes Waitrose", "lat": 50.758435204, "lon": -1.288344104}
      ],
      "departures": [
        "06:10", "06:25", "06:40", "06:55", "07:10", "07:25", "07:40",
        "07:55", "08:10", "08:25", "08:40", "08:55", "09:10", "09:25",
        "09:40", "09:55", "10:10", "10:25", "10:40", "10:55",
        "11:10", "11:25", "11:40", "11:55", "12:10", "12:25", "12:40",
        "12:55", "13:10", "13:25", "13:40", "13:55", "14:10", "14:25",
        "14:40", "14:55", "15:10", "15:25", "15:40", "15:55", "16:10",
        "16:25", "16:40", "16:55", "17:10", "17:25", "17:40", "17:55",
        "18:10", "18:25", "18:40", "18:55", "19:10", "19:25", "19:40",
        "19:55", "20:10", "20:25", "20:40", "20:55", "21:10", "21:25",
        "21:40", "21:55", "22:10", "22:25", "22:40", "22:55", "23:10",
        "23:25", "23:40"
      ]
    },
    {
      "name": "East Cowes to Newport",
      "stops": [
        {"name": "East Cowes Waitrose", "lat": 50.758435204, "lon": -1.288344104},
        {"name": "Nursery Gardens", "lat": 50.755375082, "lon": -1.286448303},
        {"name": "The Chapel", "lat": 50.753010020, "lon": -1.286747920},
        {"name": "Vectis Road", "lat": 50.751109837, "lon": -1.284542761},
        {"name": "Mayfield Road", "lat": 50.751025367, "lon": -1.282502810},
        {"name": "Gordon Lodge", "lat": 50.750851466, "lon": -1.280549288},
        {"name": "Osborne House", "lat": 50.749520460, "lon": -1.276175491},
        {"name": "CECAMM", "lat": 50.743305183, "lon": -1.271636735},
        {"name": "Whippingham, Campfield Road", "lat": 50.739288273, "lon": -1.269218972},
        {"name": "Whippingham Forge", "lat": 50.738215928, "lon": -1.268867199},
        {"name": "Alverstone Road", "lat": 50.727558674, "lon": -1.263025713},
        {"name": "Binfield Corner", "lat": 50.722032796, "lon": -1.268056480},
        {"name": "Whitehouses", "lat": 50.719684805, "lon": -1.272229460},
        {"name": "Orchard House", "lat": 50.712524972, "lon": -1.279671964},
        {"name": "Medina, Leisure Centre", "lat": 50.708823877, "lon": -1.282778703},
        {"name": "Seaclose", "lat": 50.705437802, "lon": -1.286399044},
        {"name": "Hillside", "lat": 50.702759961, "lon": -1.288348961},
        {"name": "Newport Bus Station", "lat": 50.698092472, "lon": -1.294085698}
      ],
      "departures": [
        "06:35", "06:50", "07:05", "07:20", "07:35", "07:50", "08:05",
        "08:20", "08:35", "08:50", "09:05", "09:20", "09:35", "09:50",
        "10:05", "10:20", "10:35", "10:50", "11:05", "11:20",
        "11:35", "11:50", "12:05", "12:20", "12:35", "12:50", "13:05",
        "13:20", "13:35", "13:50", "14:05", "14:20", "14:35", "14:50",
        "15:05", "15:20", "15:35", "15:50", "16:05", "16:20", "16:35",
        "16:50", "17:05", "17:20", "17:35", "17:50", "18:05", "18:20",
        "18:35", "18:50", "19:05", "19:20", "19:35", "19:50", "20:05",
        "20:20", "20:35", "20:50", "21:05", "21:20", "21:35", "21:50",
        "22:05", "22:20", "22:35", "22:50", "23:05", "23:20", "23:35",
        "23:50", "00:05"
      ]
    }
  ]
}
