{
  "route": {
    "id": "9B",
    "name": "Route 9B",
    "length": 30,
    "color": "#c763a5"
  },
  "directions": [
    {
      "name": "Newport to Ryde",
      "stops": [
        {"name": "Newport Bus Station [E]", "lat": 50.698064039, "lon": -1.293845417},
        {"name": "Broadlands House", "lat": 50.702273312, "lon": -1.286560341},
        {"name": "Reeve Court", "lat": 50.702387027, "lon": -1.282712034},
        {"name": "Staplers, Long Lane", "lat": 50.701190035, "lon": -1.277054016},
        {"name": "Landscape Lane", "lat": 50.701554066, "lon": -1.270598384},
        {"name": "Monkey Haven", "lat": 50.706447965, "lon": -1.261324942},
        {"name": "Butterfly World", "lat": 50.711217864, "lon": -1.254401502},
        {"name": "Wootton Common Crossroads", "lat": 50.715992499, "lon": -1.247314245},
        {"name": "Wootton Station", "lat": 50.719421636, "lon": -1.242202163},
        {"name": "Gravel Pit Road", "lat": 50.722317006, "lon": -1.239927921},
        {"name": "Wootton, Cedars", "lat": 50.724705276, "lon": -1.236053345},
        {"name": "Wootton Tesco", "lat": 50.725190005, "lon": -1.232138920},
        {"name": "Wootton Bridge", "lat": 50.724766638, "lon": -1.226262695},
        {"name": "Kite Hill", "lat": 50.726484111, "lon": -1.219490500},
        {"name": "Fishbourne Lane", "lat": 50.726862842, "lon": -1.212952756},
        {"name": "Quarr Abbey", "lat": 50.727930601, "lon": -1.204646393},
        {"name": "Binstead, Newnham Road", "lat": 50.727235846, "lon": -1.189937459},
        {"name": "Binstead, Binstead Arms", "lat": 50.727396462, "lon": -1.187171892},
        {"name": "Binstead, Ringwood Road", "lat": 50.727953612, "lon": -1.180687313},
        {"name": "St Vincents", "lat": 50.728416505, "lon": -1.174912659},
        {"name": "Queens Road", "lat": 50.727309434, "lon": -1.172240145},
        {"name": "Parish Church", "lat": 50.728140981, "lon": -1.166264980},
        {"name": "Union Street", "lat": 50.730297030, "lon": -1.162614030},
        {"name": "Ryde Transport Interchange [D]", "lat": 50.732516715, "lon": -1.159573171}
      ],
      "departures": [
        "05:10","05:30","05:50",
        "06:10","06:30","06:50",
        "07:10","07:30","07:50",
        "08:10","08:30","08:50",
        "09:10","09:30","09:50",
        "10:10","10:30","10:50",
        "11:10","11:30","11:50",
        "12:10","12:30","12:50",
        "13:10","13:30","13:50",
        "14:10","14:30","14:50",
        "15:10","15:30","15:50",
        "16:10","16:30","16:50",
        "17:10","17:30","17:50",
        "18:10","18:30","18:50",
        "19:10","19:30","19:50",
        "20:10","20:30","20:50",
        "21:10","21:30","21:50",
        "22:10","22:30","22:50",
        "23:10","23:30","23:50"
      ]
    },
    {
      "name": "Ryde to Newport",
      "stops": [
        {"name": "Ryde Transport Interchange [D]", "lat": 50.732516715, "lon": -1.159573171},
        {"name": "Union Street", "lat": 50.730297030, "lon": -1.162614030},
        {"name": "Parish Church", "lat": 50.728140981, "lon": -1.166264980},
        {"name": "Queens Road", "lat": 50.727309434, "lon": -1.172240145},
        {"name": "St Vincents", "lat": 50.728416505, "lon": -1.174912659},
        {"name": "Binstead, Ringwood Road", "lat": 50.727953612, "lon": -1.180687313},
        {"name": "Binstead, Binstead Arms", "lat": 50.727396462, "lon": -1.187171892},
        {"name": "Binstead, Newnham Road", "lat": 50.727235846, "lon": -1.189937459},
        {"name": "Quarr Abbey", "lat": 50.727930601, "lon": -1.204646393},
        {"name": "Fishbourne Lane", "lat": 50.726862842, "lon": -1.212952756},
        {"name": "Kite Hill", "lat": 50.726484111, "lon": -1.219490500},
        {"name": "Wootton Bridge", "lat": 50.724766638, "lon": -1.226262695},
        {"name": "Wootton Tesco", "lat": 50.725190005, "lon": -1.232138920},
        {"name": "Wootton, Cedars", "lat": 50.724705276, "lon": -1.236053345},
        {"name": "Gravel Pit Road", "lat": 50.722317006, "lon": -1.239927921},
        {"name": "Wootton Station", "lat": 50.719421636, "lon": -1.242202163},
        {"name": "Wootton Common Crossroads", "lat": 50.715992499, "lon": -1.247314245},
        {"name": "Butterfly World", "lat": 50.711217864, "lon": -1.254401502},
        {"name": "Monkey Haven", "lat": 50.706447965, "lon": -1.261324942},
        {"name": "Landscape Lane", "lat": 50.701554066, "lon": -1.270598384},
        {"name": "Staplers, Long Lane", "lat": 50.701190035, "lon": -1.277054016},
        {"name": "Reeve Court", "lat": 50.702387027, "lon": -1.282712034},
        {"name": "Broadlands House", "lat": 50.702273312, "lon": -1.286560341},
        {"name": "Newport Bus Station [E]", "lat": 50.698064039, "lon": -1.293845417}
      ],
      "departures": [
        "05:50","06:10","06:30",
        "06:50","07:10","07:30",
        "07:50","08:10","08:30",
        "08:50","09:10","09:30",
        "09:50","10:10","10:30",
        "10:50","11:10","11:30",
        "11:50","12:10","12:30",
        "12:50","13:10","13:30",
        "13:50","14:10","14:30",
        "14:50","15:10","15:30",
        "15:50","16:10","16:30",
        "16:50","17:10","17:30",
        "17:50","18:10","18:30",
        "18:50","19:10","19:30",
        "19:50","20:10","20:30",
        "20:50","21:10","21:30",
        "21:50","22:10","22:30",
        "22:50","23:10","23:30",
        "23:50","00:10","00:30"
      ]
    }
  ]
}
