{
  "route": {
    "id": "N3",
    "name": "Route N3",
    "length": 77,
    "color": "#412777"
  },
  "directions": [
    {
      "name": "Newport to Ryde",
      "stops": [
        {"name": "Newport Bus Station", "lat": 50.698003666, "lon": -1.294271101},
        {"name": "St Georges Park", "lat": 50.694004017, "lon": -1.287822919},
        {"name": "Newport ASDA Store", "lat": 50.693680103, "lon": -1.284269642},
        {"name": "Shide Road", "lat": 50.689800358, "lon": -1.288051894},
        {"name": "West Standen", "lat": 50.685676387, "lon": -1.288666349},
        {"name": "Newclose Cricket Ground", "lat": 50.681763385, "lon": -1.287012806},
        {"name": "Blackwater Junction", "lat": 50.677081036, "lon": -1.283750132},
        {"name": "Blackwater Mill", "lat": 50.673307036, "lon": -1.285046398},
        {"name": "Pidford Manor", "lat": 50.659108842, "lon": -1.285304351},
        {"name": "Rookley Village Green", "lat": 50.654439258, "lon": -1.282008399},
        {"name": "Rookley, The Lakes", "lat": 50.653388326, "lon": -1.279294264},
        {"name": "Pagham", "lat": 50.651126869, "lon": -1.271379263},
        {"name": "Merstone Lane", "lat": 50.649610348, "lon": -1.267597781},
        {"name": "Allendale", "lat": 50.644689267, "lon": -1.264745188},
        {"name": "Yarborough Close", "lat": 50.637468191, "lon": -1.258792704},
        {"name": "Godshill School", "lat": 50.634892764, "lon": -1.256839409},
        {"name": "Godshill Hollies", "lat": 50.632738337, "lon": -1.253225331},
        {"name": "Moor Farm Lane", "lat": 50.632727066, "lon": -1.248672536},
        {"name": "Godshill South", "lat": 50.632587594, "lon": -1.245874828},
        {"name": "Redhill Lane", "lat": 50.633412581, "lon": -1.235379597},
        {"name": "Sandford Chapel", "lat": 50.633610327, "lon": -1.229682657},
        {"name": "Whiteley Bank", "lat": 50.630598764, "lon": -1.222248199},
        {"name": "Donkey Sanctuary", "lat": 50.626669748, "lon": -1.223207784},
        {"name": "Cooks Castle Farm", "lat": 50.622148323, "lon": -1.224865538},
        {"name": "Appuldurcombe", "lat": 50.619412592, "lon": -1.224585372},
        {"name": "Wroxall Church", "lat": 50.616018794, "lon": -1.222718838},
        {"name": "Wroxall, Manor Road", "lat": 50.613849647, "lon": -1.222443625},
        {"name": "Mountfield Road", "lat": 50.611525283, "lon": -1.224517128},
        {"name": "Pitt Farm", "lat": 50.604921754, "lon": -1.224116906},
        {"name": "Island Free School", "lat": 50.600139977, "lon": -1.219683963},
        {"name": "Upper Ventnor, York Road", "lat": 50.598231558, "lon": -1.216144879},
        {"name": "St Albans Steps", "lat": 50.595829313, "lon": -1.214644743},
        {"name": "Old Station Road", "lat": 50.597350616, "lon": -1.208218956},
        {"name": "Ventnor Bowling Club", "lat": 50.597795209, "lon": -1.204834614},
        {"name": "Spring Hill Gardens", "lat": 50.596061897, "lon": -1.203860669},
        {"name": "Grove House Surgery", "lat": 50.594846440, "lon": -1.202341176},
        {"name": "Ventnor Boots", "lat": 50.595202784, "lon": -1.205796627},
        {"name": "Central Car Park", "lat": 50.595829854, "lon": -1.202804934},
        {"name": "Ventnor Library", "lat": 50.596746821, "lon": -1.200133213},
        {"name": "Trinity Church", "lat": 50.597635582, "lon": -1.197292317},
        {"name": "Chimney Steps", "lat": 50.601281964, "lon": -1.188808661},
        {"name": "Bonchurch Shute", "lat": 50.602601074, "lon": -1.184532655},
        {"name": "Landslip Car Park", "lat": 50.606985725, "lon": -1.181404380},
        {"name": "Luccombe Chine House", "lat": 50.607317959, "lon": -1.187758060},
        {"name": "Glenavon", "lat": 50.610484697, "lon": -1.187929679},
        {"name": "Corner Cottage", "lat": 50.612614175, "lon": -1.188953055},
        {"name": "Top of Cowleaze", "lat": 50.614793643, "lon": -1.185537483},
        {"name": "Church Road Top", "lat": 50.620204954, "lon": -1.185350047},
        {"name": "Big Mead", "lat": 50.623767470, "lon": -1.180236647},
        {"name": "Daish's", "lat": 50.626790476, "lon": -1.179152029},
        {"name": "Regent Street", "lat": 50.631152962, "lon": -1.178001503},
        {"name": "Shanklin Bus Station", "lat": 50.631892859, "lon": -1.179628782},
        {"name": "Ryedale", "lat": 50.633505822, "lon": -1.178808879},
        {"name": "Wilton Park Road", "lat": 50.635933022, "lon": -1.176259033},
        {"name": "Howard Road", "lat": 50.637681321, "lon": -1.172839260},
        {"name": "Winchester House", "lat": 50.640488687, "lon": -1.170527267},
        {"name": "Cemetery Road", "lat": 50.643141211, "lon": -1.169207729},
        {"name": "Lake, Shops", "lat": 50.648368512, "lon": -1.168281050},
        {"name": "Lake Fairway", "lat": 50.650166951, "lon": -1.166521923},
        {"name": "The Heights", "lat": 50.651411435, "lon": -1.161211250},
        {"name": "Royal Crescent", "lat": 50.654185345, "lon": -1.159280422},
        {"name": "Fitzroy Street", "lat": 50.654042810, "lon": -1.156977147},
        {"name": "Sandown Conservative Club", "lat": 50.655930425, "lon": -1.154368668},
        {"name": "Sandown, Victoria Road", "lat": 50.656190293, "lon": -1.150530226},
        {"name": "Fort Mews", "lat": 50.659516035, "lon": -1.150722929},
        {"name": "College Close", "lat": 50.661307820, "lon": -1.151838615},
        {"name": "Devonia", "lat": 50.669262995, "lon": -1.149383950},
        {"name": "Yarbridge Crossroads", "lat": 50.674161071, "lon": -1.144771566},
        {"name": "New Road", "lat": 50.678270293, "lon": -1.142248365},
        {"name": "Brading Bull Ring", "lat": 50.680115632, "lon": -1.143715059},
        {"name": "Brading Church", "lat": 50.682881548, "lon": -1.143183472},
        {"name": "Brading Cricket Club", "lat": 50.687258965, "lon": -1.143969982},
        {"name": "Rowborough Corner", "lat": 50.692579331, "lon": -1.144506172},
        {"name": "Whitefield Forest Park", "lat": 50.699897798, "lon": -1.145861275},
        {"name": "Bartletts Green", "lat": 50.707242383, "lon": -1.146733384},
        {"name": "Busy Bee", "lat": 50.709674364, "lon": -1.146037757},
        {"name": "Hayward Avenue", "lat": 50.715947269, "lon": -1.146702868},
        {"name": "Circular Road", "lat": 50.718886096, "lon": -1.146451198},
        {"name": "Arundel Road", "lat": 50.721202422, "lon": -1.145927476},
        {"name": "Ryde, St. John's Church", "lat": 50.723472990, "lon": -1.147482979},
        {"name": "Lower Highland Road", "lat": 50.722429234, "lon": -1.151373536},
        {"name": "St Johns Road Station", "lat": 50.724853026, "lon": -1.157444012},
        {"name": "Benett Street", "lat": 50.726340639, "lon": -1.157508438},
        {"name": "Ryde Library", "lat": 50.727900459, "lon": -1.161815990},
        {"name": "Union Street", "lat": 50.730297030, "lon": -1.162614030},
        {"name": "Ryde Transport Interchange", "lat": 50.732659335, "lon": -1.159384995}
      ],
      "departures": [
        "00:40", "01:50", "03:00"
      ]
    },
    {
      "name": "Ryde to Newport",
      "stops": [
        {"name": "Ryde Transport Interchange", "lat": 50.732659335, "lon": -1.159384995},
        {"name": "Union Street", "lat": 50.730297030, "lon": -1.162614030},
        {"name": "Ryde Library", "lat": 50.727900459, "lon": -1.161815990},
        {"name": "Benett Street", "lat": 50.726340639, "lon": -1.157508438},
        {"name": "St Johns Road Station", "lat": 50.724853026, "lon": -1.157444012},
        {"name": "Lower Highland Road", "lat": 50.722429234, "lon": -1.151373536},
        {"name": "Ryde, St. John's Church", "lat": 50.723472990, "lon": -1.147482979},
        {"name": "Arundel Road", "lat": 50.721202422, "lon": -1.145927476},
        {"name": "Circular Road", "lat": 50.718886096, "lon": -1.146451198},
        {"name": "Hayward Avenue", "lat": 50.715947269, "lon": -1.146702868},
        {"name": "Busy Bee", "lat": 50.709674364, "lon": -1.146037757},
        {"name": "Bartletts Green", "lat": 50.707242383, "lon": -1.146733384},
        {"name": "Whitefield Forest Park", "lat": 50.699897798, "lon": -1.145861275},
        {"name": "Rowborough Corner", "lat": 50.692579331, "lon": -1.144506172},
        {"name": "Brading Cricket Club", "lat": 50.687258965, "lon": -1.143969982},
        {"name": "Brading Church", "lat": 50.682881548, "lon": -1.143183472},
        {"name": "Brading Bull Ring", "lat": 50.680115632, "lon": -1.143715059},
        {"name": "New Road", "lat": 50.678270293, "lon": -1.142248365},
        {"name": "Yarbridge Crossroads", "lat": 50.674161071, "lon": -1.144771566},
        {"name": "Devonia", "lat": 50.669262995, "lon": -1.149383950},
        {"name": "College Close", "lat": 50.661307820, "lon": -1.151838615},
        {"name": "Fort Mews", "lat": 50.659516035, "lon": -1.150722929},
        {"name": "Sandown, Victoria Road", "lat": 50.656190293, "lon": -1.150530226},
        {"name": "Sandown Conservative Club", "lat": 50.655930425, "lon": -1.154368668},
        {"name": "Fitzroy Street", "lat": 50.654042810, "lon": -1.156977147},
        {"name": "Royal Crescent", "lat": 50.654185345, "lon": -1.159280422},
        {"name": "The Heights", "lat": 50.651411435, "lon": -1.161211250},
        {"name": "Lake Fairway", "lat": 50.650166951, "lon": -1.166521923},
        {"name": "Lake, Shops", "lat": 50.648368512, "lon": -1.168281050},
        {"name": "Cemetery Road", "lat": 50.643141211, "lon": -1.169207729},
        {"name": "Winchester House", "lat": 50.640488687, "lon": -1.170527267},
        {"name": "Howard Road", "lat": 50.637681321, "lon": -1.172839260},
        {"name": "Wilton Park Road", "lat": 50.635933022, "lon": -1.176259033},
        {"name": "Ryedale", "lat": 50.633505822, "lon": -1.178808879},
        {"name": "Shanklin Bus Station", "lat": 50.631892859, "lon": -1.179628782},
        {"name": "Regent Street", "lat": 50.631152962, "lon": -1.178001503},
        {"name": "Daish's", "lat": 50.626790476, "lon": -1.179152029},
        {"name": "Big Mead", "lat": 50.623767470, "lon": -1.180236647},
        {"name": "Church Road Top", "lat": 50.620204954, "lon": -1.185350047},
        {"name": "Top of Cowleaze", "lat": 50.614793643, "lon": -1.185537483},
        {"name": "Corner Cottage", "lat": 50.612614175, "lon": -1.188953055},
        {"name": "Glenavon", "lat": 50.610484697, "lon": -1.187929679},
        {"name": "Luccombe Chine House", "lat": 50.607317959, "lon": -1.187758060},
        {"name": "Landslip Car Park", "lat": 50.606985725, "lon": -1.181404380},
        {"name": "Bonchurch Shute", "lat": 50.602601074, "lon": -1.184532655},
        {"name": "Chimney Steps", "lat": 50.601281964, "lon": -1.188808661},
        {"name": "Trinity Church", "lat": 50.597635582, "lon": -1.197292317},
        {"name": "Ventnor Library", "lat": 50.596746821, "lon": -1.200133213},
        {"name": "Central Car Park", "lat": 50.595829854, "lon": -1.202804934},
        {"name": "Ventnor Boots", "lat": 50.595202784, "lon": -1.205796627},
        {"name": "Grove House Surgery", "lat": 50.594846440, "lon": -1.202341176},
        {"name": "Spring Hill Gardens", "lat": 50.596061897, "lon": -1.203860669},
        {"name": "Ventnor Bowling Club", "lat": 50.597795209, "lon": -1.204834614},
        {"name": "Old Station Road", "lat": 50.597350616, "lon": -1.208218956},
        {"name": "St Albans Steps", "lat": 50.595829313, "lon": -1.214644743},
        {"name": "Upper Ventnor, York Road", "lat": 50.598231558, "lon": -1.216144879},
        {"name": "Island Free School", "lat": 50.600139977, "lon": -1.219683963},
        {"name": "Pitt Farm", "lat": 50.604921754, "lon": -1.224116906},
        {"name": "Mountfield Road", "lat": 50.611525283, "lon": -1.224517128},
        {"name": "Wroxall, Manor Road", "lat": 50.613849647, "lon": -1.222443625},
        {"name": "Wroxall Church", "lat": 50.616018794, "lon": -1.222718838},
        {"name": "Appuldurcombe", "lat": 50.619412592, "lon": -1.224585372},
        {"name": "Cooks Castle Farm", "lat": 50.622148323, "lon": -1.224865538},
        {"name": "Donkey Sanctuary", "lat": 50.626669748, "lon": -1.223207784},
        {"name": "Whiteley Bank", "lat": 50.630598764, "lon": -1.222248199},
        {"name": "Sandford Chapel", "lat": 50.633610327, "lon": -1.229682657},
        {"name": "Redhill Lane", "lat": 50.633412581, "lon": -1.235379597},
        {"name": "Godshill South", "lat": 50.632587594, "lon": -1.245874828},
        {"name": "Moor Farm Lane", "lat": 50.632727066, "lon": -1.248672536},
        {"name": "Godshill Hollies", "lat": 50.632738337, "lon": -1.253225331},
        {"name": "Godshill School", "lat": 50.634892764, "lon": -1.256839409},
        {"name": "Yarborough Close", "lat": 50.637468191, "lon": -1.258792704},
        {"name": "Allendale", "lat": 50.644689267, "lon": -1.264745188},
        {"name": "Merstone Lane", "lat": 50.649610348, "lon": -1.267597781},
        {"name": "Pagham", "lat": 50.651126869, "lon": -1.271379263},
        {"name": "Rookley, The Lakes", "lat": 50.653388326, "lon": -1.279294264},
        {"name": "Rookley Village Green", "lat": 50.654439258, "lon": -1.282008399},
        {"name": "Pidford Manor", "lat": 50.659108842, "lon": -1.285304351},
        {"name": "Blackwater Mill", "lat": 50.673307036, "lon": -1.285046398},
        {"name": "Blackwater Junction", "lat": 50.677081036, "lon": -1.283750132},
        {"name": "Newclose Cricket Ground", "lat": 50.681763385, "lon": -1.287012806},
        {"name": "West Standen", "lat": 50.685676387, "lon": -1.288666349},
        {"name": "Shide Road", "lat": 50.689800358, "lon": -1.288051894},
        {"name": "Newport ASDA Store", "lat": 50.693680103, "lon": -1.284269642},
        {"name": "St Georges Park", "lat": 50.694004017, "lon": -1.287822919},
        {"name": "Newport Bus Station", "lat": 50.698003666, "lon": -1.294271101}
      ],
      "departures": [
        "02:05", "03:15", "04:25"
      ]
    }
  ]
}